2022-03-08T00:00:00.516818,$GPRMC,000000,A,5348.2843,N,00133.7329,W,000.0,036.3,080322,002.0,W
2022-03-08T00:00:01.526817,$GPRMC,000001,A,5348.2842,N,00133.7329,W,000.0,036.3,080322,002.0,W
2022-03-08T00:00:02.535764,$GPRMC,000002,A,5348.2842,N,00133.7330,W,000.0,036.3,080322,002.0,W
2022-03-08T00:00:03.545661,$GPRMC,000003,A,5348.2841,N,00133.7331,W,000.0,036.3,080322,002.0,W
2022-03-08T00:00:04.555769,$GPRMC,000004,A,5348.2841,N,00133.7330,W,000.0,036.3,080322,002.0,W
2022-03-08T00:00:05.566347,$GPRMC,000005,A,5348.2841,N,00133.7330,W,000.0,036.3,080322,002.0,W
2022-03-08T00:00:06.542036,$GPRMC,000006,A,5348.2842,N,00133.7331,W,000.9,290.7,080322,002.0,W
2022-03-08T00:00:07.517115,$GPRMC,000007,A,5348.2842,N,00133.7334,W,000.0,290.7,080322,002.0,W
2022-03-08T00:00:08.526232,$GPRMC,000008,A,5348.2841,N,00133.7337,W,000.0,290.7,080322,002.0,W
2022-03-08T00:00:09.536222,$GPRMC,000009,A,5348.2841,N,00133.7336,W,000.0,290.7,080322,002.0,W
2022-03-08T00:00:10.546177,$GPRMC,000010,A,5348.2840,N,00133.7338,W,000.0,290.7,080322,002.0,W
2022-03-08T00:00:11.532298,$GPRMC,000011,A,5348.2840,N,00133.7339,W,000.0,290.7,080322,002.0,W
2022-03-08T00:00:12.537175,$GPRMC,000012,A,5348.2840,N,00133.7340,W,000.0,290.7,080322,002.0,W
2022-03-08T00:00:13.512282,$GPRMC,000013,A,5348.2840,N,00133.7341,W,000.0,290.7,080322,002.0,W
2022-03-08T00:00:14.552150,$GPRMC,000014,A,5348.2840,N,00133.7343,W,000.0,290.7,080322,002.0,W
2022-03-08T00:00:15.542177,$GPRMC,000015,A,5348.2841,N,00133.7344,W,000.0,290.7,080322,002.0,W
2022-03-08T00:00:16.522484,$GPRMC,000016,A,5348.2841,N,00133.7347,W,000.0,290.7,080322,002.0,W
2022-03-08T00:00:17.531399,$GPRMC,000017,A,5348.2841,N,00133.7347,W,000.0,290.7,080322,002.0,W
2022-03-08T00:00:18.527366,$GPRMC,000018,A,5348.2841,N,00133.7346,W,000.0,290.7,080322,002.0,W
2022-03-08T00:00:19.536522,$GPRMC,000019,A,5348.2842,N,00133.7346,W,000.0,290.7,080322,002.0,W
2022-03-08T00:00:20.516769,$GPRMC,000020,A,5348.2841,N,00133.7346,W,000.0,290.7,080322,002.0,W
2022-03-08T00:00:21.517056,$GPRMC,000021,A,5348.2841,N,00133.7346,W,000.0,290.7,080322,002.0,W
2022-03-08T00:00:22.526660,$GPRMC,000022,A,5348.2840,N,00133.7348,W,000.0,290.7,080322,002.0,W
2022-03-08T00:00:23.536661,$GPRMC,000023,A,5348.2840,N,00133.7349,W,000.0,290.7,080322,002.0,W
2022-03-08T00:00:24.546673,$GPRMC,000024,A,5348.2840,N,00133.7350,W,000.0,290.7,080322,002.0,W
2022-03-08T00:00:25.556688,$GPRMC,000025,A,5348.2840,N,00133.7351,W,000.0,290.7,080322,002.0,W
2022-03-08T00:00:26.571324,$GPRMC,000026,A,5348.2841,N,00133.7351,W,000.0,290.7,080322,002.0,W
2022-03-08T00:00:27.517636,$GPRMC,000027,A,5348.2842,N,00133.7352,W,000.0,290.7,080322,002.0,W
2022-03-08T00:00:28.627615,$GPRMC,000028,A,5348.2844,N,00133.7353,W,000.0,290.7,080322,002.0,W
2022-03-08T00:00:29.637569,$GPRMC,000029,A,5348.2844,N,00133.7352,W,000.0,290.7,080322,002.0,W
2022-03-08T00:00:30.516798,$GPRMC,000030,A,5348.2845,N,00133.7351,W,000.0,290.7,080322,002.0,W
2022-03-08T00:00:31.526937,$GPRMC,000031,A,5348.2846,N,00133.7350,W,000.0,290.7,080322,002.0,W
2022-03-08T00:00:32.527853,$GPRMC,000032,A,5348.2846,N,00133.7348,W,000.0,290.7,080322,002.0,W
2022-03-08T00:00:33.536835,$GPRMC,000033,A,5348.2846,N,00133.7348,W,000.0,290.7,080322,002.0,W
2022-03-08T00:00:34.537815,$GPRMC,000034,A,5348.2845,N,00133.7349,W,000.0,290.7,080322,002.0,W
2022-03-08T00:00:35.518004,$GPRMC,000035,A,5348.2844,N,00133.7351,W,000.0,290.7,080322,002.0,W
2022-03-08T00:00:36.517740,$GPRMC,000036,A,5348.2844,N,00133.7352,W,000.0,290.7,080322,002.0,W
2022-03-08T00:00:37.517907,$GPRMC,000037,A,5348.2845,N,00133.7350,W,000.0,290.7,080322,002.0,W
2022-03-08T00:00:38.527601,$GPRMC,000038,A,5348.2846,N,00133.7349,W,000.0,290.7,080322,002.0,W
2022-03-08T00:00:39.537026,$GPRMC,000039,A,5348.2847,N,00133.7350,W,000.0,290.7,080322,002.0,W
2022-03-08T00:00:40.523098,$GPRMC,000040,A,5348.2849,N,00133.7352,W,000.0,290.7,080322,002.0,W
2022-03-08T00:00:41.523234,$GPRMC,000041,A,5348.2849,N,00133.7354,W,000.0,290.7,080322,002.0,W
2022-03-08T00:00:42.532270,$GPRMC,000042,A,5348.2849,N,00133.7356,W,000.0,290.7,080322,002.0,W
2022-03-08T00:00:43.508209,$GPRMC,000043,A,5348.2850,N,00133.7354,W,000.0,290.7,080322,002.0,W
2022-03-08T00:00:44.523209,$GPRMC,000044,A,5348.2850,N,00133.7352,W,000.0,290.7,080322,002.0,W
2022-03-08T00:00:45.531882,$GPRMC,000045,A,5348.2851,N,00133.7353,W,000.0,290.7,080322,002.0,W
2022-03-08T00:00:46.503327,$GPRMC,000046,A,5348.2852,N,00133.7354,W,000.0,290.7,080322,002.0,W
2022-03-08T00:00:47.512244,$GPRMC,000047,A,5348.2853,N,00133.7351,W,000.0,290.7,080322,002.0,W
2022-03-08T00:00:48.488198,$GPRMC,000048,A,5348.2853,N,00133.7349,W,000.0,290.7,080322,002.0,W
2022-03-08T00:00:49.518085,$GPRMC,000049,A,5348.2852,N,00133.7349,W,000.0,290.7,080322,002.0,W
2022-03-08T00:00:50.527106,$GPRMC,000050,A,5348.2853,N,00133.7351,W,000.0,290.7,080322,002.0,W
2022-03-08T00:00:51.537658,$GPRMC,000051,A,5348.2853,N,00133.7353,W,000.0,290.7,080322,002.0,W
2022-03-08T00:00:52.547642,$GPRMC,000052,A,5348.2855,N,00133.7355,W,000.0,290.7,080322,002.0,W
2022-03-08T00:00:53.518645,$GPRMC,000053,A,5348.2855,N,00133.7355,W,000.0,290.7,080322,002.0,W
2022-03-08T00:00:54.538747,$GPRMC,000054,A,5348.2855,N,00133.7354,W,000.0,290.7,080322,002.0,W
2022-03-08T00:00:55.547599,$GPRMC,000055,A,5348.2854,N,00133.7355,W,000.0,290.7,080322,002.0,W
2022-03-08T00:00:56.508654,$GPRMC,000056,A,5348.2854,N,00133.7358,W,000.0,290.7,080322,002.0,W
2022-03-08T00:00:57.517732,$GPRMC,000057,A,5348.2854,N,00133.7360,W,000.0,290.7,080322,002.0,W
2022-03-08T00:00:58.527644,$GPRMC,000058,A,5348.2854,N,00133.7359,W,000.0,290.7,080322,002.0,W
2022-03-08T00:00:59.548635,$GPRMC,000059,A,5348.2854,N,00133.7359,W,000.0,290.7,080322,002.0,W
2022-03-08T00:01:00.557707,$GPRMC,000100,A,5348.2854,N,00133.7358,W,000.0,290.7,080322,002.0,W
2022-03-08T00:01:01.567797,$GPRMC,000101,A,5348.2853,N,00133.7360,W,001.0,251.6,080322,002.0,W
2022-03-08T00:01:02.518891,$GPRMC,000102,A,5348.2851,N,00133.7362,W,001.0,250.3,080322,002.0,W
2022-03-08T00:01:03.508880,$GPRMC,000103,A,5348.2849,N,00133.7363,W,000.0,250.3,080322,002.0,W
2022-03-08T00:01:04.543876,$GPRMC,000104,A,5348.2848,N,00133.7361,W,000.0,250.3,080322,002.0,W
2022-03-08T00:01:05.503706,$GPRMC,000105,A,5348.2847,N,00133.7360,W,000.0,250.3,080322,002.0,W
2022-03-08T00:01:07.524064,$GPRMC,000107,A,5348.2848,N,00133.7358,W,000.0,250.3,080322,002.0,W
2022-03-08T00:01:08.504042,$GPRMC,000108,A,5348.2848,N,00133.7360,W,000.0,250.3,080322,002.0,W
2022-03-08T00:01:09.513998,$GPRMC,000109,A,5348.2847,N,00133.7360,W,000.0,250.3,080322,002.0,W
2022-03-08T00:01:10.493942,$GPRMC,000110,A,5348.2848,N,00133.7358,W,000.0,250.3,080322,002.0,W
2022-03-08T00:01:11.503063,$GPRMC,000111,A,5348.2847,N,00133.7356,W,000.0,250.3,080322,002.0,W
2022-03-08T00:01:12.519102,$GPRMC,000112,A,5348.2846,N,00133.7354,W,000.0,250.3,080322,002.0,W
2022-03-08T00:01:13.528148,$GPRMC,000113,A,5348.2844,N,00133.7352,W,000.0,250.3,080322,002.0,W
2022-03-08T00:01:14.514194,$GPRMC,000114,A,5348.2842,N,00133.7349,W,000.0,250.3,080322,002.0,W
2022-03-08T00:01:15.469172,$GPRMC,000115,A,5348.2841,N,00133.7346,W,000.0,250.3,080322,002.0,W
2022-03-08T00:01:16.484318,$GPRMC,000116,A,5348.2840,N,00133.7341,W,000.0,250.3,080322,002.0,W
2022-03-08T00:01:17.493271,$GPRMC,000117,A,5348.2840,N,00133.7338,W,000.0,250.3,080322,002.0,W
2022-03-08T00:01:18.514286,$GPRMC,000118,A,5348.2841,N,00133.7334,W,000.9,111.7,080322,002.0,W
2022-03-08T00:01:19.549344,$GPRMC,000119,A,5348.2842,N,00133.7332,W,000.0,111.7,080322,002.0,W
2022-03-08T00:01:20.484321,$GPRMC,000120,A,5348.2843,N,00133.7332,W,000.0,111.7,080322,002.0,W
2022-03-08T00:01:21.479365,$GPRMC,000121,A,5348.2845,N,00133.7331,W,000.0,111.7,080322,002.0,W
2022-03-08T00:01:22.473683,$GPRMC,000122,A,5348.2845,N,00133.7329,W,000.0,111.7,080322,002.0,W
2022-03-08T00:01:23.483665,$GPRMC,000123,A,5348.2846,N,00133.7325,W,000.0,111.7,080322,002.0,W
2022-03-08T00:01:24.493501,$GPRMC,000124,A,5348.2846,N,00133.7324,W,000.0,111.7,080322,002.0,W
2022-03-08T00:01:25.519311,$GPRMC,000125,A,5348.2845,N,00133.7324,W,000.0,111.7,080322,002.0,W
2022-03-08T00:01:26.575587,$GPRMC,000126,A,5348.2844,N,00133.7322,W,000.0,111.7,080322,002.0,W
2022-03-08T00:01:27.501057,$GPRMC,000127,A,5348.2843,N,00133.7322,W,000.0,111.7,080322,002.0,W
2022-03-08T00:01:28.634122,$GPRMC,000128,A,5348.2843,N,00133.7323,W,000.0,111.7,080322,002.0,W
2022-03-08T00:01:29.644368,$GPRMC,000129,A,5348.2842,N,00133.7325,W,000.0,111.7,080322,002.0,W
2022-03-08T00:01:30.652932,$GPRMC,000130,A,5348.2841,N,00133.7324,W,000.0,111.7,080322,002.0,W
2022-03-08T00:01:31.510056,$GPRMC,000131,A,5348.2839,N,00133.7321,W,000.0,111.7,080322,002.0,W
2022-03-08T00:01:32.518861,$GPRMC,000132,A,5348.2837,N,00133.7317,W,000.0,111.7,080322,002.0,W
2022-03-08T00:01:33.528740,$GPRMC,000133,A,5348.2834,N,00133.7310,W,000.0,111.7,080322,002.0,W
2022-03-08T00:01:34.524908,$GPRMC,000134,A,5348.2832,N,00133.7306,W,000.0,111.7,080322,002.0,W
2022-03-08T00:01:35.534103,$GPRMC,000135,A,5348.2832,N,00133.7303,W,000.0,111.7,080322,002.0,W
2022-03-08T00:01:36.544217,$GPRMC,000136,A,5348.2831,N,00133.7301,W,000.0,111.7,080322,002.0,W
2022-03-08T00:01:37.553874,$GPRMC,000137,A,5348.2830,N,00133.7301,W,000.0,111.7,080322,002.0,W
2022-03-08T00:01:38.515141,$GPRMC,000138,A,5348.2830,N,00133.7301,W,000.0,111.7,080322,002.0,W
2022-03-08T00:01:39.545140,$GPRMC,000139,A,5348.2830,N,00133.7301,W,000.0,111.7,080322,002.0,W
2022-03-08T00:01:40.515127,$GPRMC,000140,A,5348.2830,N,00133.7301,W,000.0,111.7,080322,002.0,W
2022-03-08T00:01:41.524147,$GPRMC,000141,A,5348.2830,N,00133.7300,W,000.0,111.7,080322,002.0,W
2022-03-08T00:01:42.530126,$GPRMC,000142,A,5348.2830,N,00133.7300,W,000.0,111.7,080322,002.0,W
2022-03-08T00:01:43.524974,$GPRMC,000143,A,5348.2830,N,00133.7300,W,000.0,111.7,080322,002.0,W
2022-03-08T00:01:44.554300,$GPRMC,000144,A,5348.2831,N,00133.7299,W,000.0,111.7,080322,002.0,W
2022-03-08T00:01:45.564291,$GPRMC,000145,A,5348.2831,N,00133.7298,W,000.0,111.7,080322,002.0,W
2022-03-08T00:01:46.535502,$GPRMC,000146,A,5348.2831,N,00133.7297,W,000.0,111.7,080322,002.0,W
2022-03-08T00:01:47.520248,$GPRMC,000147,A,5348.2831,N,00133.7298,W,000.0,111.7,080322,002.0,W
2022-03-08T00:01:48.535256,$GPRMC,000148,A,5348.2831,N,00133.7301,W,000.9,255.3,080322,002.0,W
2022-03-08T00:01:49.535429,$GPRMC,000149,A,5348.2831,N,00133.7300,W,000.0,255.3,080322,002.0,W
2022-03-08T00:01:50.525429,$GPRMC,000150,A,5348.2830,N,00133.7294,W,000.0,255.3,080322,002.0,W
2022-03-08T00:01:51.534524,$GPRMC,000151,A,5348.2830,N,00133.7290,W,000.0,255.3,080322,002.0,W
2022-03-08T00:01:52.530421,$GPRMC,000152,A,5348.2831,N,00133.7286,W,000.0,255.3,080322,002.0,W
2022-03-08T00:01:53.535509,$GPRMC,000153,A,5348.2830,N,00133.7284,W,000.0,255.3,080322,002.0,W
2022-03-08T00:01:54.544475,$GPRMC,000154,A,5348.2830,N,00133.7284,W,000.0,255.3,080322,002.0,W
2022-03-08T00:01:55.525548,$GPRMC,000155,A,5348.2830,N,00133.7285,W,000.0,255.3,080322,002.0,W
2022-03-08T00:01:56.515662,$GPRMC,000156,A,5348.2830,N,00133.7285,W,000.0,255.3,080322,002.0,W
2022-03-08T00:01:57.524796,$GPRMC,000157,A,5348.2830,N,00133.7285,W,000.0,255.3,080322,002.0,W
2022-03-08T00:01:58.534678,$GPRMC,000158,A,5348.2830,N,00133.7285,W,000.0,255.3,080322,002.0,W
2022-03-08T00:01:59.535807,$GPRMC,000159,A,5348.2830,N,00133.7283,W,000.0,255.3,080322,002.0,W
2022-03-08T00:02:00.540742,$GPRMC,000200,A,5348.2829,N,00133.7283,W,000.0,255.3,080322,002.0,W
2022-03-08T00:02:01.525943,$GPRMC,000201,A,5348.2828,N,00133.7284,W,000.0,255.3,080322,002.0,W
2022-03-08T00:02:02.542879,$GPRMC,000202,A,5348.2827,N,00133.7283,W,000.0,255.3,080322,002.0,W
2022-03-08T00:02:03.520888,$GPRMC,000203,A,5348.2826,N,00133.7281,W,000.0,255.3,080322,002.0,W
2022-03-08T00:02:04.536141,$GPRMC,000204,A,5348.2825,N,00133.7278,W,000.0,255.3,080322,002.0,W
2022-03-08T00:02:05.535776,$GPRMC,000205,A,5348.2824,N,00133.7277,W,000.0,255.3,080322,002.0,W
2022-03-08T00:02:06.545465,$GPRMC,000206,A,5348.2824,N,00133.7276,W,000.0,255.3,080322,002.0,W
2022-03-08T00:02:07.526118,$GPRMC,000207,A,5348.2824,N,00133.7278,W,000.0,255.3,080322,002.0,W
2022-03-08T00:02:08.535015,$GPRMC,000208,A,5348.2824,N,00133.7280,W,000.0,255.3,080322,002.0,W
2022-03-08T00:02:09.545229,$GPRMC,000209,A,5348.2825,N,00133.7279,W,000.0,255.3,080322,002.0,W
2022-03-08T00:02:10.526054,$GPRMC,000210,A,5348.2825,N,00133.7278,W,000.0,255.3,080322,002.0,W
2022-03-08T00:02:11.536305,$GPRMC,000211,A,5348.2826,N,00133.7277,W,000.0,255.3,080322,002.0,W
2022-03-08T00:02:12.545219,$GPRMC,000212,A,5348.2827,N,00133.7278,W,000.0,255.3,080322,002.0,W
2022-03-08T00:02:13.510911,$GPRMC,000213,A,5348.2827,N,00133.7279,W,000.0,255.3,080322,002.0,W
2022-03-08T00:02:14.526270,$GPRMC,000214,A,5348.2825,N,00133.7279,W,000.0,255.3,080322,002.0,W
2022-03-08T00:02:15.536244,$GPRMC,000215,A,5348.2822,N,00133.7276,W,000.0,255.3,080322,002.0,W
2022-03-08T00:02:16.516287,$GPRMC,000216,A,5348.2821,N,00133.7273,W,000.0,255.3,080322,002.0,W
2022-03-08T00:02:17.525098,$GPRMC,000217,A,5348.2820,N,00133.7269,W,000.0,255.3,080322,002.0,W
2022-03-08T00:02:18.526234,$GPRMC,000218,A,5348.2819,N,00133.7269,W,000.0,255.3,080322,002.0,W
2022-03-08T00:02:19.536175,$GPRMC,000219,A,5348.2817,N,00133.7270,W,000.0,255.3,080322,002.0,W
2022-03-08T00:02:20.526475,$GPRMC,000220,A,5348.2816,N,00133.7272,W,000.0,255.3,080322,002.0,W
2022-03-08T00:02:21.535233,$GPRMC,000221,A,5348.2814,N,00133.7272,W,000.0,255.3,080322,002.0,W
2022-03-08T00:02:22.500922,$GPRMC,000222,A,5348.2813,N,00133.7270,W,000.0,255.3,080322,002.0,W
2022-03-08T00:02:23.509369,$GPRMC,000223,A,5348.2812,N,00133.7269,W,000.0,255.3,080322,002.0,W
2022-03-08T00:02:24.551320,$GPRMC,000224,A,5348.2811,N,00133.7270,W,000.0,255.3,080322,002.0,W
2022-03-08T00:02:25.526309,$GPRMC,000225,A,5348.2811,N,00133.7272,W,000.0,255.3,080322,002.0,W
2022-03-08T00:02:26.573183,$GPRMC,000226,A,5348.2811,N,00133.7272,W,000.0,255.3,080322,002.0,W
2022-03-08T00:02:27.677172,$GPRMC,000227,A,5348.2812,N,00133.7270,W,000.0,255.3,080322,002.0,W
2022-03-08T00:02:28.808027,$GPRMC,000228,A,5348.2811,N,00133.7271,W,000.0,255.3,080322,002.0,W
2022-03-08T00:02:29.815171,$GPRMC,000229,A,5348.2811,N,00133.7271,W,000.0,255.3,080322,002.0,W
2022-03-08T00:02:30.490879,$GPRMC,000230,A,5348.2810,N,00133.7273,W,000.0,255.3,080322,002.0,W
2022-03-08T00:02:31.500794,$GPRMC,000231,A,5348.2810,N,00133.7275,W,000.0,255.3,080322,002.0,W
2022-03-08T00:02:32.510914,$GPRMC,000232,A,5348.2809,N,00133.7277,W,000.0,255.3,080322,002.0,W
2022-03-08T00:02:33.511958,$GPRMC,000233,A,5348.2809,N,00133.7275,W,000.0,255.3,080322,002.0,W
2022-03-08T00:02:34.649360,$GPRMC,000234,A,5348.2809,N,00133.7273,W,000.0,255.3,080322,002.0,W
2022-03-08T00:02:36.517090,
2022-03-08T00:02:37.522332,$GPRMC,000237,A,5348.2809,N,00133.7269,W,000.0,255.3,080322,002.0,W
2022-03-08T00:02:38.531072,$GPRMC,000238,A,5348.2809,N,00133.7269,W,000.0,255.3,080322,002.0,W
2022-03-08T00:02:39.532036,$GPRMC,000239,A,5348.2809,N,00133.7270,W,000.0,255.3,080322,002.0,W
2022-03-08T00:02:40.541084,$GPRMC,000240,A,5348.2811,N,00133.7271,W,000.0,255.3,080322,002.0,W
2022-03-08T00:02:41.551084,$GPRMC,000241,A,5348.2811,N,00133.7271,W,000.0,255.3,080322,002.0,W
2022-03-08T00:02:42.560857,$GPRMC,000242,A,5348.2810,N,00133.7271,W,000.0,255.3,080322,002.0,W
2022-03-08T00:02:43.487290,$GPRMC,000243,A,5348.2810,N,00133.7274,W,000.0,255.3,080322,002.0,W
2022-03-08T00:02:44.496297,$GPRMC,000244,A,5348.2809,N,00133.7274,W,000.0,255.3,080322,002.0,W
2022-03-08T00:02:45.506484,$GPRMC,000245,A,5348.2809,N,00133.7273,W,000.0,255.3,080322,002.0,W
2022-03-08T00:02:46.497214,$GPRMC,000246,A,5348.2809,N,00133.7272,W,000.0,255.3,080322,002.0,W
2022-03-08T00:02:47.507144,$GPRMC,000247,A,5348.2809,N,00133.7272,W,000.0,255.3,080322,002.0,W
2022-03-08T00:02:48.512216,$GPRMC,000248,A,5348.2808,N,00133.7271,W,000.0,255.3,080322,002.0,W
2022-03-08T00:02:49.521413,$GPRMC,000249,A,5348.2808,N,00133.7273,W,000.0,255.3,080322,002.0,W
2022-03-08T00:02:50.512189,$GPRMC,000250,A,5348.2807,N,00133.7275,W,000.0,255.3,080322,002.0,W
2022-03-08T00:02:51.512324,$GPRMC,000251,A,5348.2807,N,00133.7275,W,000.0,255.3,080322,002.0,W
2022-03-08T00:02:52.512473,$GPRMC,000252,A,5348.2808,N,00133.7274,W,000.0,255.3,080322,002.0,W
2022-03-08T00:02:53.521529,$GPRMC,000253,A,5348.2809,N,00133.7273,W,000.0,255.3,080322,002.0,W
2022-03-08T00:02:54.531297,$GPRMC,000254,A,5348.2809,N,00133.7270,W,000.0,255.3,080322,002.0,W
2022-03-08T00:02:55.541630,$GPRMC,000255,A,5348.2809,N,00133.7270,W,000.0,255.3,080322,002.0,W
2022-03-08T00:02:56.504412,$GPRMC,000256,A,5348.2809,N,00133.7272,W,000.0,255.3,080322,002.0,W
2022-03-08T00:02:57.556527,$GPRMC,000257,A,5348.2809,N,00133.7274,W,000.0,255.3,080322,002.0,W
2022-03-08T00:02:58.512685,$GPRMC,000258,A,5348.2809,N,00133.7274,W,000.0,255.3,080322,002.0,W
2022-03-08T00:02:59.537276,$GPRMC,000259,A,5348.2809,N,00133.7275,W,000.0,255.3,080322,002.0,W
2022-03-08T00:03:00.492703,$GPRMC,000300,A,5348.2811,N,00133.7275,W,000.0,255.3,080322,002.0,W
2022-03-08T00:03:01.517837,$GPRMC,000301,A,5348.2812,N,00133.7275,W,000.0,255.3,080322,002.0,W
2022-03-08T00:03:02.526260,$GPRMC,000302,A,5348.2817,N,00133.7278,W,000.0,255.3,080322,002.0,W
2022-03-08T00:03:03.536794,$GPRMC,000303,A,5348.2822,N,00133.7281,W,000.0,255.3,080322,002.0,W
2022-03-08T00:03:04.537727,$GPRMC,000304,A,5348.2824,N,00133.7283,W,000.0,255.3,080322,002.0,W
2022-03-08T00:03:05.546961,$GPRMC,000305,A,5348.2826,N,00133.7287,W,000.0,255.3,080322,002.0,W
2022-03-08T00:03:06.512788,$GPRMC,000306,A,5348.2829,N,00133.7289,W,000.0,255.3,080322,002.0,W
2022-03-08T00:03:07.521904,$GPRMC,000307,A,5348.2828,N,00133.7290,W,000.0,255.3,080322,002.0,W
2022-03-08T00:03:08.531886,$GPRMC,000308,A,5348.2829,N,00133.7290,W,000.0,255.3,080322,002.0,W
2022-03-08T00:03:09.498638,$GPRMC,000309,A,5348.2828,N,00133.7290,W,000.0,255.3,080322,002.0,W
2022-03-08T00:03:10.507182,$GPRMC,000310,A,5348.2829,N,00133.7288,W,000.0,255.3,080322,002.0,W
2022-03-08T00:03:11.517332,$GPRMC,000311,A,5348.2829,N,00133.7288,W,000.0,255.3,080322,002.0,W
2022-03-08T00:03:12.527326,$GPRMC,000312,A,5348.2830,N,00133.7289,W,000.0,255.3,080322,002.0,W
2022-03-08T00:03:13.537407,$GPRMC,000313,A,5348.2832,N,00133.7292,W,000.0,255.3,080322,002.0,W
2022-03-08T00:03:14.538129,$GPRMC,000314,A,5348.2835,N,00133.7294,W,000.0,255.3,080322,002.0,W
2022-03-08T00:03:15.475307,$GPRMC,000315,A,5348.2837,N,00133.7297,W,000.0,255.3,080322,002.0,W
2022-03-08T00:03:16.487353,$GPRMC,000316,A,5348.2838,N,00133.7300,W,000.0,255.3,080322,002.0,W
2022-03-08T00:03:17.497320,$GPRMC,000317,A,5348.2838,N,00133.7300,W,000.0,255.3,080322,002.0,W
2022-03-08T00:03:18.507405,$GPRMC,000318,A,5348.2838,N,00133.7301,W,000.0,255.3,080322,002.0,W
2022-03-08T00:03:19.498218,$GPRMC,000319,A,5348.2839,N,00133.7303,W,000.0,255.3,080322,002.0,W
2022-03-08T00:03:20.478286,$GPRMC,000320,A,5348.2840,N,00133.7303,W,000.0,255.3,080322,002.0,W
2022-03-08T00:03:21.488162,$GPRMC,000321,A,5348.2839,N,00133.7302,W,000.0,255.3,080322,002.0,W
2022-03-08T00:03:22.488458,$GPRMC,000322,A,5348.2839,N,00133.7301,W,000.9,142.1,080322,002.0,W
2022-03-08T00:03:23.497001,$GPRMC,000323,A,5348.2840,N,00133.7299,W,000.0,142.1,080322,002.0,W
2022-03-08T00:03:24.507343,$GPRMC,000324,A,5348.2841,N,00133.7302,W,000.0,142.1,080322,002.0,W
2022-03-08T00:03:25.517524,$GPRMC,000325,A,5348.2842,N,00133.7304,W,000.0,142.1,080322,002.0,W
2022-03-08T00:03:26.577108,$GPRMC,000326,A,5348.2842,N,00133.7306,W,000.0,142.1,080322,002.0,W
2022-03-08T00:03:27.509307,$GPRMC,000327,A,5348.2842,N,00133.7308,W,000.0,142.1,080322,002.0,W
2022-03-08T00:03:28.641183,$GPRMC,000328,A,5348.2841,N,00133.7308,W,000.0,142.1,080322,002.0,W
2022-03-08T00:03:29.498619,$GPRMC,000329,A,5348.2841,N,00133.7309,W,000.0,142.1,080322,002.0,W
2022-03-08T00:03:30.506731,$GPRMC,000330,A,5348.2841,N,00133.7307,W,000.0,142.1,080322,002.0,W
2022-03-08T00:03:31.517477,$GPRMC,000331,A,5348.2842,N,00133.7308,W,000.0,142.1,080322,002.0,W
2022-03-08T00:03:32.527597,$GPRMC,000332,A,5348.2843,N,00133.7310,W,000.0,142.1,080322,002.0,W
2022-03-08T00:03:33.537673,$GPRMC,000333,A,5348.2844,N,00133.7310,W,000.0,142.1,080322,002.0,W
2022-03-08T00:03:34.498726,$GPRMC,000334,A,5348.2848,N,00133.7310,W,000.9,024.9,080322,002.0,W
2022-03-08T00:03:35.488680,$GPRMC,000335,A,5348.2851,N,00133.7308,W,001.2,025.6,080322,002.0,W
2022-03-08T00:03:36.484026,$GPRMC,000336,A,5348.2854,N,00133.7306,W,001.2,027.7,080322,002.0,W
2022-03-08T00:03:37.473874,$GPRMC,000337,A,5348.2855,N,00133.7305,W,000.0,027.7,080322,002.0,W
2022-03-08T00:03:38.483143,$GPRMC,000338,A,5348.2857,N,00133.7305,W,000.0,027.7,080322,002.0,W
2022-03-08T00:03:39.499030,$GPRMC,000339,A,5348.2858,N,00133.7302,W,000.0,027.7,080322,002.0,W
2022-03-08T00:03:40.483906,$GPRMC,000340,A,5348.2858,N,00133.7305,W,000.0,027.7,080322,002.0,W
2022-03-08T00:03:41.469192,$GPRMC,000341,A,5348.2856,N,00133.7311,W,000.0,027.7,080322,002.0,W
2022-03-08T00:03:42.478438,$GPRMC,000342,A,5348.2855,N,00133.7314,W,000.0,027.7,080322,002.0,W
2022-03-08T00:03:43.474017,$GPRMC,000343,A,5348.2853,N,00133.7320,W,000.0,027.7,080322,002.0,W
2022-03-08T00:03:44.504179,$GPRMC,000344,A,5348.2852,N,00133.7321,W,000.0,027.7,080322,002.0,W
2022-03-08T00:03:45.518063,$GPRMC,000345,A,5348.2850,N,00133.7327,W,000.0,027.7,080322,002.0,W
2022-03-08T00:03:46.528117,$GPRMC,000346,A,5348.2849,N,00133.7324,W,000.0,027.7,080322,002.0,W
2022-03-08T00:03:47.474343,$GPRMC,000347,A,5348.2848,N,00133.7329,W,000.0,027.7,080322,002.0,W
2022-03-08T00:03:48.483459,$GPRMC,000348,A,5348.2848,N,00133.7332,W,000.0,027.7,080322,002.0,W
2022-03-08T00:03:49.493578,$GPRMC,000349,A,5348.2849,N,00133.7331,W,000.0,027.7,080322,002.0,W
2022-03-08T00:03:50.503407,$GPRMC,000350,A,5348.2849,N,00133.7331,W,000.0,027.7,080322,002.0,W
2022-03-08T00:03:51.513598,$GPRMC,000351,A,5348.2847,N,00133.7335,W,000.0,027.7,080322,002.0,W
2022-03-08T00:03:52.523437,$GPRMC,000352,A,5348.2846,N,00133.7338,W,000.0,027.7,080322,002.0,W
2022-03-08T00:03:53.479382,$GPRMC,000353,A,5348.2845,N,00133.7340,W,000.0,027.7,080322,002.0,W
2022-03-08T00:03:54.488445,$GPRMC,000354,A,5348.2846,N,00133.7341,W,000.0,027.7,080322,002.0,W
2022-03-08T00:03:55.498423,$GPRMC,000355,A,5348.2846,N,00133.7339,W,000.0,027.7,080322,002.0,W
2022-03-08T00:03:56.474452,$GPRMC,000356,A,5348.2845,N,00133.7338,W,000.0,027.7,080322,002.0,W
2022-03-08T00:03:57.483511,$GPRMC,000357,A,5348.2844,N,00133.7339,W,000.0,027.7,080322,002.0,W
2022-03-08T00:03:58.484709,$GPRMC,000358,A,5348.2842,N,00133.7341,W,001.0,213.5,080322,002.0,W
2022-03-08T00:03:59.489670,$GPRMC,000359,A,5348.2841,N,00133.7340,W,000.0,213.5,080322,002.0,W
2022-03-08T00:04:00.474311,$GPRMC,000400,A,5348.2840,N,00133.7338,W,000.0,213.5,080322,002.0,W
2022-03-08T00:04:01.479868,$GPRMC,000401,A,5348.2840,N,00133.7336,W,000.9,107.3,080322,002.0,W
2022-03-08T00:04:03.331944,$GPRMC,000402,A,5348.2842,N,00133.7338,W,000.0,107.3,080322,002.0,W
2022-03-08T00:04:04.499717,
2022-03-08T00:04:05.494787,$GPRMC,000405,A,5348.2847,N,00133.7341,W,000.0,264.1,080322,002.0,W
2022-03-08T00:04:06.503799,$GPRMC,000406,A,5348.2849,N,00133.7340,W,000.0,264.1,080322,002.0,W
2022-03-08T00:04:07.489756,$GPRMC,000407,A,5348.2851,N,00133.7338,W,000.0,264.1,080322,002.0,W
2022-03-08T00:04:08.499285,$GPRMC,000408,A,5348.2852,N,00133.7337,W,000.0,264.1,080322,002.0,W
2022-03-08T00:04:09.508974,$GPRMC,000409,A,5348.2854,N,00133.7335,W,000.0,264.1,080322,002.0,W
2022-03-08T00:04:10.479871,$GPRMC,000410,A,5348.2856,N,00133.7334,W,000.0,264.1,080322,002.0,W
2022-03-08T00:04:11.529179,$GPRMC,000411,A,5348.2856,N,00133.7333,W,000.0,264.1,080322,002.0,W
2022-03-08T00:04:12.539065,$GPRMC,000412,A,5348.2857,N,00133.7334,W,000.0,264.1,080322,002.0,W
2022-03-08T00:04:13.549117,$GPRMC,000413,A,5348.2859,N,00133.7335,W,000.0,264.1,080322,002.0,W
2022-03-08T00:04:14.500210,$GPRMC,000414,A,5348.2860,N,00133.7335,W,000.0,264.1,080322,002.0,W
2022-03-08T00:04:15.480257,$GPRMC,000415,A,5348.2860,N,00133.7333,W,000.0,264.1,080322,002.0,W
2022-03-08T00:04:16.489451,$GPRMC,000416,A,5348.2861,N,00133.7332,W,000.0,264.1,080322,002.0,W
2022-03-08T00:04:17.470126,$GPRMC,000417,A,5348.2860,N,00133.7332,W,000.0,264.1,080322,002.0,W
2022-03-08T00:04:18.480325,$GPRMC,000418,A,5348.2859,N,00133.7332,W,000.0,264.1,080322,002.0,W
2022-03-08T00:04:19.525090,$GPRMC,000419,A,5348.2858,N,00133.7333,W,000.0,264.1,080322,002.0,W
2022-03-08T00:04:20.534590,$GPRMC,000420,A,5348.2857,N,00133.7335,W,000.0,264.1,080322,002.0,W
2022-03-08T00:04:21.544111,$GPRMC,000421,A,5348.2858,N,00133.7336,W,000.0,264.1,080322,002.0,W
2022-03-08T00:04:22.460553,$GPRMC,000422,A,5348.2856,N,00133.7336,W,000.0,264.1,080322,002.0,W
2022-03-08T00:04:23.460456,$GPRMC,000423,A,5348.2857,N,00133.7337,W,000.0,264.1,080322,002.0,W
2022-03-08T00:04:24.499958,$GPRMC,000424,A,5348.2857,N,00133.7337,W,000.0,264.1,080322,002.0,W
2022-03-08T00:04:25.489782,$GPRMC,000425,A,5348.2858,N,00133.7337,W,000.0,264.1,080322,002.0,W
2022-03-08T00:04:26.578373,$GPRMC,000426,A,5348.2858,N,00133.7337,W,000.0,264.1,080322,002.0,W
2022-03-08T00:04:27.688558,$GPRMC,000427,A,5348.2858,N,00133.7337,W,000.0,264.1,080322,002.0,W
2022-03-08T00:04:28.819694,$GPRMC,000428,A,5348.2858,N,00133.7338,W,000.0,264.1,080322,002.0,W
2022-03-08T00:04:29.505711,$GPRMC,000429,A,5348.2856,N,00133.7342,W,001.2,236.2,080322,002.0,W
2022-03-08T00:04:30.479855,$GPRMC,000430,A,5348.2853,N,00133.7343,W,001.1,235.2,080322,002.0,W
2022-03-08T00:04:31.489799,$GPRMC,000431,A,5348.2852,N,00133.7342,W,000.0,235.2,080322,002.0,W
2022-03-08T00:04:32.480558,$GPRMC,000432,A,5348.2851,N,00133.7337,W,000.0,235.2,080322,002.0,W
2022-03-08T00:04:33.524764,$GPRMC,000433,A,5348.2849,N,00133.7333,W,000.0,235.2,080322,002.0,W
2022-03-08T00:04:34.510866,$GPRMC,000434,A,5348.2846,N,00133.7330,W,000.0,235.2,080322,002.0,W
2022-03-08T00:04:35.544931,$GPRMC,000435,A,5348.2845,N,00133.7326,W,000.0,235.2,080322,002.0,W
2022-03-08T00:04:36.554956,$GPRMC,000436,A,5348.2843,N,00133.7324,W,000.0,235.2,080322,002.0,W
2022-03-08T00:04:37.481032,$GPRMC,000437,A,5348.2841,N,00133.7325,W,000.0,235.2,080322,002.0,W
2022-03-08T00:04:38.486094,$GPRMC,000438,A,5348.2838,N,00133.7323,W,000.0,235.2,080322,002.0,W
2022-03-08T00:04:39.494759,$GPRMC,000439,A,5348.2832,N,00133.7323,W,000.0,235.2,080322,002.0,W
2022-03-08T00:04:40.490803,$GPRMC,000440,A,5348.2829,N,00133.7323,W,000.0,235.2,080322,002.0,W
2022-03-08T00:04:41.500058,$GPRMC,000441,A,5348.2824,N,00133.7322,W,001.1,224.2,080322,002.0,W
2022-03-08T00:04:42.510145,$GPRMC,000442,A,5348.2822,N,00133.7322,W,001.0,222.1,080322,002.0,W
2022-03-08T00:04:43.471190,$GPRMC,000443,A,5348.2821,N,00133.7319,W,000.0,222.1,080322,002.0,W
2022-03-08T00:04:44.481155,$GPRMC,000444,A,5348.2818,N,00133.7312,W,000.0,222.1,080322,002.0,W
2022-03-08T00:04:45.481129,$GPRMC,000445,A,5348.2816,N,00133.7307,W,000.0,222.1,080322,002.0,W
2022-03-08T00:04:46.496389,$GPRMC,000446,A,5348.2815,N,00133.7303,W,000.0,222.1,080322,002.0,W
2022-03-08T00:04:47.496398,$GPRMC,000447,A,5348.2814,N,00133.7299,W,000.0,222.1,080322,002.0,W
2022-03-08T00:04:48.486443,$GPRMC,000448,A,5348.2816,N,00133.7301,W,000.0,222.1,080322,002.0,W
2022-03-08T00:04:49.495238,$GPRMC,000449,A,5348.2814,N,00133.7297,W,000.0,222.1,080322,002.0,W
2022-03-08T00:04:50.505083,$GPRMC,000450,A,5348.2813,N,00133.7297,W,000.0,222.1,080322,002.0,W
2022-03-08T00:04:51.515508,$GPRMC,000451,A,5348.2814,N,00133.7298,W,000.0,222.1,080322,002.0,W
2022-03-08T00:04:52.496419,$GPRMC,000452,A,5348.2814,N,00133.7301,W,000.0,222.1,080322,002.0,W
2022-03-08T00:04:53.505561,$GPRMC,000453,A,5348.2810,N,00133.7296,W,000.0,222.1,080322,002.0,W
2022-03-08T00:04:54.516458,$GPRMC,000454,A,5348.2807,N,00133.7291,W,000.0,222.1,080322,002.0,W
2022-03-08T00:04:55.481390,$GPRMC,000455,A,5348.2805,N,00133.7290,W,000.0,222.1,080322,002.0,W
2022-03-08T00:04:56.486765,$GPRMC,000456,A,5348.2805,N,00133.7289,W,000.0,222.1,080322,002.0,W
2022-03-08T00:04:57.496678,$GPRMC,000457,A,5348.2806,N,00133.7287,W,000.0,222.1,080322,002.0,W
2022-03-08T00:04:58.491629,$GPRMC,000458,A,5348.2805,N,00133.7286,W,000.0,222.1,080322,002.0,W
2022-03-08T00:04:59.501662,$GPRMC,000459,A,5348.2805,N,00133.7286,W,000.0,222.1,080322,002.0,W
2022-03-08T00:05:00.476821,$GPRMC,000500,A,5348.2805,N,00133.7286,W,000.0,222.1,080322,002.0,W
2022-03-08T00:05:01.486789,$GPRMC,000501,A,5348.2803,N,00133.7287,W,000.0,222.1,080322,002.0,W
2022-03-08T00:05:02.481807,$GPRMC,000502,A,5348.2802,N,00133.7286,W,000.0,222.1,080322,002.0,W
2022-03-08T00:05:03.490688,$GPRMC,000503,A,5348.2801,N,00133.7283,W,000.0,222.1,080322,002.0,W
2022-03-08T00:05:04.491641,$GPRMC,000504,A,5348.2801,N,00133.7282,W,000.0,222.1,080322,002.0,W
2022-03-08T00:05:05.500607,$GPRMC,000505,A,5348.2797,N,00133.7280,W,000.0,222.1,080322,002.0,W
2022-03-08T00:05:06.481644,$GPRMC,000506,A,5348.2794,N,00133.7278,W,000.0,222.1,080322,002.0,W
2022-03-08T00:05:07.490797,$GPRMC,000507,A,5348.2791,N,00133.7274,W,001.0,175.0,080322,002.0,W
2022-03-08T00:05:08.500719,$GPRMC,000508,A,5348.2788,N,00133.7273,W,000.9,173.8,080322,002.0,W
2022-03-08T00:05:09.510563,$GPRMC,000509,A,5348.2788,N,00133.7270,W,000.0,173.8,080322,002.0,W
2022-03-08T00:05:10.520977,$GPRMC,000510,A,5348.2788,N,00133.7267,W,000.0,173.8,080322,002.0,W
2022-03-08T00:05:11.531120,$GPRMC,000511,A,5348.2787,N,00133.7262,W,000.0,173.8,080322,002.0,W
2022-03-08T00:05:12.541285,$GPRMC,000512,A,5348.2786,N,00133.7259,W,000.0,173.8,080322,002.0,W
2022-03-08T00:05:13.551280,$GPRMC,000513,A,5348.2781,N,00133.7256,W,001.3,172.8,080322,002.0,W
2022-03-08T00:05:14.502181,$GPRMC,000514,A,5348.2778,N,00133.7254,W,001.2,180.3,080322,002.0,W
2022-03-08T00:05:15.487243,$GPRMC,000515,A,5348.2776,N,00133.7251,W,001.0,178.1,080322,002.0,W
2022-03-08T00:05:16.472141,$GPRMC,000516,A,5348.2774,N,00133.7249,W,000.0,178.1,080322,002.0,W
2022-03-08T00:05:17.492045,$GPRMC,000517,A,5348.2773,N,00133.7246,W,000.0,178.1,080322,002.0,W
2022-03-08T00:05:18.501351,$GPRMC,000518,A,5348.2773,N,00133.7243,W,000.0,178.1,080322,002.0,W
2022-03-08T00:05:19.492108,$GPRMC,000519,A,5348.2772,N,00133.7240,W,000.0,178.1,080322,002.0,W
2022-03-08T00:05:20.501698,$GPRMC,000520,A,5348.2768,N,00133.7237,W,000.0,178.1,080322,002.0,W
2022-03-08T00:05:21.472123,$GPRMC,000521,A,5348.2767,N,00133.7235,W,000.0,178.1,080322,002.0,W
2022-03-08T00:05:22.481050,$GPRMC,000522,A,5348.2766,N,00133.7234,W,000.0,178.1,080322,002.0,W
2022-03-08T00:05:23.491529,$GPRMC,000523,A,5348.2765,N,00133.7234,W,000.0,178.1,080322,002.0,W
2022-03-08T00:05:24.501574,$GPRMC,000524,A,5348.2766,N,00133.7235,W,000.0,178.1,080322,002.0,W
2022-03-08T00:05:25.471870,$GPRMC,000525,A,5348.2767,N,00133.7234,W,000.0,178.1,080322,002.0,W
2022-03-08T00:05:26.471662,$GPRMC,000526,A,5348.2770,N,00133.7237,W,000.0,178.1,080322,002.0,W
2022-03-08T00:05:27.522222,$GPRMC,000527,A,5348.2773,N,00133.7243,W,000.0,178.1,080322,002.0,W
2022-03-08T00:05:28.487066,$GPRMC,000528,A,5348.2774,N,00133.7246,W,000.0,178.1,080322,002.0,W
2022-03-08T00:05:29.541560,$GPRMC,000529,A,5348.2775,N,00133.7249,W,000.0,178.1,080322,002.0,W
2022-03-08T00:05:32.093278,$GPRMC,000530,A,5348.2776,N,00133.7253,W,000.0,178.1,080322,002.0,W
2022-03-08T00:05:32.487806,$GPRMC,000532,A,5348.2778,N,00133.7256,W,000.0,178.1,080322,002.0,W
2022-03-08T00:05:33.478046,$GPRMC,000533,A,5348.2778,N,00133.7258,W,000.0,178.1,080322,002.0,W
2022-03-08T00:05:34.487691,$GPRMC,000534,A,5348.2778,N,00133.7259,W,000.0,178.1,080322,002.0,W
2022-03-08T00:05:35.479132,$GPRMC,000535,A,5348.2777,N,00133.7260,W,000.0,178.1,080322,002.0,W
2022-03-08T00:05:36.487830,$GPRMC,000536,A,5348.2777,N,00133.7259,W,000.0,178.1,080322,002.0,W
2022-03-08T00:05:37.496959,$GPRMC,000537,A,5348.2777,N,00133.7258,W,000.0,178.1,080322,002.0,W
2022-03-08T00:05:38.506964,$GPRMC,000538,A,5348.2776,N,00133.7259,W,000.0,178.1,080322,002.0,W
2022-03-08T00:05:39.487626,$GPRMC,000539,A,5348.2775,N,00133.7259,W,000.0,178.1,080322,002.0,W
2022-03-08T00:05:40.467621,$GPRMC,000540,A,5348.2772,N,00133.7262,W,000.0,178.1,080322,002.0,W
2022-03-08T00:05:41.477651,$GPRMC,000541,A,5348.2769,N,00133.7265,W,000.0,178.1,080322,002.0,W
2022-03-08T00:05:42.503071,$GPRMC,000542,A,5348.2768,N,00133.7268,W,000.0,178.1,080322,002.0,W
2022-03-08T00:05:43.487849,$GPRMC,000543,A,5348.2768,N,00133.7269,W,000.0,178.1,080322,002.0,W
2022-03-08T00:05:44.531976,$GPRMC,000544,A,5348.2767,N,00133.7270,W,000.0,178.1,080322,002.0,W
2022-03-08T00:05:45.541830,$GPRMC,000545,A,5348.2765,N,00133.7270,W,000.0,178.1,080322,002.0,W
2022-03-08T00:05:46.551789,$GPRMC,000546,A,5348.2763,N,00133.7271,W,000.0,178.1,080322,002.0,W
2022-03-08T00:05:47.483015,$GPRMC,000547,A,5348.2762,N,00133.7272,W,000.0,178.1,080322,002.0,W
2022-03-08T00:05:48.473220,$GPRMC,000548,A,5348.2762,N,00133.7274,W,000.0,178.1,080322,002.0,W
2022-03-08T00:05:49.482485,$GPRMC,000549,A,5348.2761,N,00133.7274,W,000.0,178.1,080322,002.0,W
2022-03-08T00:05:50.492454,$GPRMC,000550,A,5348.2762,N,00133.7272,W,000.0,178.1,080322,002.0,W
2022-03-08T00:05:51.478384,$GPRMC,000551,A,5348.2765,N,00133.7273,W,000.0,178.1,080322,002.0,W
2022-03-08T00:05:52.503413,$GPRMC,000552,A,5348.2767,N,00133.7274,W,000.0,178.1,080322,002.0,W
2022-03-08T00:05:53.498406,$GPRMC,000553,A,5348.2769,N,00133.7275,W,000.0,178.1,080322,002.0,W
2022-03-08T00:05:54.523512,$GPRMC,000554,A,5348.2769,N,00133.7276,W,000.0,178.1,080322,002.0,W
2022-03-08T00:05:55.532599,$GPRMC,000555,A,5348.2768,N,00133.7276,W,000.0,178.1,080322,002.0,W
2022-03-08T00:05:56.483699,$GPRMC,000556,A,5348.2767,N,00133.7278,W,000.0,178.1,080322,002.0,W
2022-03-08T00:05:57.488659,$GPRMC,000557,A,5348.2767,N,00133.7278,W,000.0,178.1,080322,002.0,W
2022-03-08T00:05:58.488550,$GPRMC,000558,A,5348.2767,N,00133.7278,W,000.0,178.1,080322,002.0,W
2022-03-08T00:05:59.497719,$GPRMC,000559,A,5348.2768,N,00133.7279,W,000.0,178.1,080322,002.0,W
2022-03-08T00:06:00.507641,$GPRMC,000600,A,5348.2768,N,00133.7280,W,000.0,178.1,080322,002.0,W
2022-03-08T00:06:01.517842,$GPRMC,000601,A,5348.2768,N,00133.7282,W,000.0,178.1,080322,002.0,W
2022-03-08T00:06:02.489177,$GPRMC,000602,A,5348.2767,N,00133.7284,W,000.0,178.1,080322,002.0,W
2022-03-08T00:06:03.488575,$GPRMC,000603,A,5348.2769,N,00133.7287,W,000.0,178.1,080322,002.0,W
2022-03-08T00:06:04.493865,$GPRMC,000604,A,5348.2772,N,00133.7292,W,001.0,288.1,080322,002.0,W
2022-03-08T00:06:05.502846,$GPRMC,000605,A,5348.2773,N,00133.7297,W,001.0,288.6,080322,002.0,W
2022-03-08T00:06:06.512775,$GPRMC,000606,A,5348.2773,N,00133.7299,W,000.0,288.6,080322,002.0,W
2022-03-08T00:06:07.522938,$GPRMC,000607,A,5348.2772,N,00133.7301,W,000.0,288.6,080322,002.0,W
2022-03-08T00:06:08.532802,$GPRMC,000608,A,5348.2775,N,00133.7302,W,000.0,288.6,080322,002.0,W
2022-03-08T00:06:09.542960,$GPRMC,000609,A,5348.2777,N,00133.7303,W,000.0,288.6,080322,002.0,W
2022-03-08T00:06:10.489062,$GPRMC,000610,A,5348.2778,N,00133.7304,W,000.0,288.6,080322,002.0,W
2022-03-08T00:06:11.497839,$GPRMC,000611,A,5348.2784,N,00133.7306,W,000.0,288.6,080322,002.0,W
2022-03-08T00:06:12.489124,$GPRMC,000612,A,5348.2787,N,00133.7309,W,000.0,288.6,080322,002.0,W
2022-03-08T00:06:13.488871,$GPRMC,000613,A,5348.2790,N,00133.7310,W,000.0,288.6,080322,002.0,W
2022-03-08T00:06:14.498147,$GPRMC,000614,A,5348.2792,N,00133.7311,W,000.0,288.6,080322,002.0,W
2022-03-08T00:06:15.489232,$GPRMC,000615,A,5348.2795,N,00133.7314,W,000.0,288.6,080322,002.0,W
2022-03-08T00:06:16.494170,$GPRMC,000616,A,5348.2798,N,00133.7314,W,000.0,288.6,080322,002.0,W
2022-03-08T00:06:17.494608,$GPRMC,000617,A,5348.2800,N,00133.7315,W,000.0,288.6,080322,002.0,W
2022-03-08T00:06:18.494020,$GPRMC,000618,A,5348.2801,N,00133.7317,W,000.0,288.6,080322,002.0,W
2022-03-08T00:06:19.504383,$GPRMC,000619,A,5348.2801,N,00133.7318,W,000.0,288.6,080322,002.0,W
2022-03-08T00:06:20.513336,$GPRMC,000620,A,5348.2800,N,00133.7319,W,000.0,288.6,080322,002.0,W
2022-03-08T00:06:21.479429,$GPRMC,000621,A,5348.2800,N,00133.7320,W,000.0,288.6,080322,002.0,W
2022-03-08T00:06:22.488278,$GPRMC,000622,A,5348.2800,N,00133.7320,W,000.0,288.6,080322,002.0,W
2022-03-08T00:06:23.479343,$GPRMC,000623,A,5348.2801,N,00133.7321,W,000.0,288.6,080322,002.0,W
2022-03-08T00:06:24.488295,$GPRMC,000624,A,5348.2801,N,00133.7322,W,000.0,288.6,080322,002.0,W
2022-03-08T00:06:25.484383,$GPRMC,000625,A,5348.2802,N,00133.7321,W,000.0,288.6,080322,002.0,W
2022-03-08T00:06:26.577821,$GPRMC,000626,A,5348.2804,N,00133.7319,W,000.0,288.6,080322,002.0,W
2022-03-08T00:06:27.527685,$GPRMC,000627,A,5348.2804,N,00133.7315,W,000.0,288.6,080322,002.0,W
2022-03-08T00:06:28.493491,$GPRMC,000628,A,5348.2804,N,00133.7311,W,000.0,288.6,080322,002.0,W
2022-03-08T00:06:29.512334,$GPRMC,000629,A,5348.2805,N,00133.7309,W,000.0,288.6,080322,002.0,W
2022-03-08T00:06:30.522578,$GPRMC,000630,A,5348.2805,N,00133.7309,W,000.0,288.6,080322,002.0,W
2022-03-08T00:06:31.533701,$GPRMC,000631,A,5348.2806,N,00133.7305,W,000.0,288.6,080322,002.0,W
2022-03-08T00:06:32.464667,$GPRMC,000632,A,5348.2806,N,00133.7304,W,000.0,288.6,080322,002.0,W
2022-03-08T00:06:33.464598,$GPRMC,000633,A,5348.2806,N,00133.7303,W,000.0,288.6,080322,002.0,W
2022-03-08T00:06:34.494019,$GPRMC,000634,A,5348.2805,N,00133.7302,W,000.0,288.6,080322,002.0,W
2022-03-08T00:06:35.503561,$GPRMC,000635,A,5348.2805,N,00133.7302,W,000.0,288.6,080322,002.0,W
2022-03-08T00:06:36.513688,$GPRMC,000636,A,5348.2805,N,00133.7303,W,000.0,288.6,080322,002.0,W
2022-03-08T00:06:37.531743,$GPRMC,000637,A,5348.2807,N,00133.7304,W,000.0,288.6,080322,002.0,W
2022-03-08T00:06:38.484822,$GPRMC,000638,A,5348.2809,N,00133.7305,W,000.0,288.6,080322,002.0,W
2022-03-08T00:06:39.489911,$GPRMC,000639,A,5348.2810,N,00133.7308,W,000.0,288.6,080322,002.0,W
2022-03-08T00:06:40.474646,$GPRMC,000640,A,5348.2810,N,00133.7312,W,000.0,288.6,080322,002.0,W
2022-03-08T00:06:41.475156,$GPRMC,000641,A,5348.2810,N,00133.7315,W,000.0,288.6,080322,002.0,W
2022-03-08T00:06:42.474964,$GPRMC,000642,A,5348.2811,N,00133.7316,W,000.0,288.6,080322,002.0,W
2022-03-08T00:06:43.484999,$GPRMC,000643,A,5348.2811,N,00133.7318,W,000.0,288.6,080322,002.0,W
2022-03-08T00:06:44.490282,$GPRMC,000644,A,5348.2812,N,00133.7319,W,000.0,288.6,080322,002.0,W
2022-03-08T00:06:45.475109,$GPRMC,000645,A,5348.2813,N,00133.7321,W,000.0,288.6,080322,002.0,W
2022-03-08T00:06:46.484165,$GPRMC,000646,A,5348.2814,N,00133.7323,W,000.0,288.6,080322,002.0,W
2022-03-08T00:06:47.495232,$GPRMC,000647,A,5348.2813,N,00133.7325,W,000.0,288.6,080322,002.0,W
2022-03-08T00:06:48.504106,$GPRMC,000648,A,5348.2812,N,00133.7325,W,000.0,288.6,080322,002.0,W
2022-03-08T00:06:49.544441,$GPRMC,000649,A,5348.2812,N,00133.7326,W,000.0,288.6,080322,002.0,W
2022-03-08T00:06:50.554631,$GPRMC,000650,A,5348.2812,N,00133.7326,W,000.0,288.6,080322,002.0,W
2022-03-08T00:06:51.564172,$GPRMC,000651,A,5348.2813,N,00133.7326,W,000.0,288.6,080322,002.0,W
2022-03-08T00:06:52.480304,$GPRMC,000652,A,5348.2813,N,00133.7326,W,000.0,288.6,080322,002.0,W
2022-03-08T00:06:53.475471,$GPRMC,000653,A,5348.2813,N,00133.7327,W,000.0,288.6,080322,002.0,W
2022-03-08T00:06:54.484486,$GPRMC,000654,A,5348.2813,N,00133.7326,W,000.0,288.6,080322,002.0,W
2022-03-08T00:06:55.495586,$GPRMC,000655,A,5348.2815,N,00133.7326,W,000.0,288.6,080322,002.0,W
2022-03-08T00:06:56.480305,$GPRMC,000656,A,5348.2816,N,00133.7327,W,000.0,288.6,080322,002.0,W
2022-03-08T00:06:57.490534,$GPRMC,000657,A,5348.2817,N,00133.7327,W,000.0,288.6,080322,002.0,W
2022-03-08T00:07:00.083932,$GPRMC,000658,A,5348.2819,N,00133.7328,W,000.0,288.6,080322,002.0,W
2022-03-08T00:07:00.475573,$GPRMC,000700,A,5348.2821,N,00133.7331,W,000.0,288.6,080322,002.0,W
2022-03-08T00:07:01.484757,$GPRMC,000701,A,5348.2821,N,00133.7336,W,000.0,288.6,080322,002.0,W
2022-03-08T00:07:02.480774,$GPRMC,000702,A,5348.2823,N,00133.7340,W,000.0,288.6,080322,002.0,W
2022-03-08T00:07:03.489600,$GPRMC,000703,A,5348.2823,N,00133.7342,W,000.0,288.6,080322,002.0,W
2022-03-08T00:07:04.499827,$GPRMC,000704,A,5348.2821,N,00133.7343,W,000.0,288.6,080322,002.0,W
2022-03-08T00:07:05.485558,$GPRMC,000705,A,5348.2821,N,00133.7347,W,000.0,288.6,080322,002.0,W
2022-03-08T00:07:06.494872,$GPRMC,000706,A,5348.2820,N,00133.7350,W,000.0,288.6,080322,002.0,W
2022-03-08T00:07:07.485916,$GPRMC,000707,A,5348.2819,N,00133.7353,W,000.0,288.6,080322,002.0,W
2022-03-08T00:07:08.491001,$GPRMC,000708,A,5348.2819,N,00133.7353,W,000.0,288.6,080322,002.0,W
2022-03-08T00:07:09.510692,$GPRMC,000709,A,5348.2820,N,00133.7354,W,000.0,288.6,080322,002.0,W
2022-03-08T00:07:10.519930,$GPRMC,000710,A,5348.2820,N,00133.7355,W,000.0,288.6,080322,002.0,W
2022-03-08T00:07:11.529858,$GPRMC,000711,A,5348.2820,N,00133.7352,W,000.0,288.6,080322,002.0,W
2022-03-08T00:07:12.539883,$GPRMC,000712,A,5348.2817,N,00133.7348,W,000.0,288.6,080322,002.0,W
2022-03-08T00:07:13.466102,$GPRMC,000713,A,5348.2815,N,00133.7345,W,000.0,288.6,080322,002.0,W
2022-03-08T00:07:14.500575,$GPRMC,000714,A,5348.2815,N,00133.7343,W,000.0,288.6,080322,002.0,W
2022-03-08T00:07:15.471169,$GPRMC,000715,A,5348.2816,N,00133.7340,W,000.0,288.6,080322,002.0,W
2022-03-08T00:07:16.481161,$GPRMC,000716,A,5348.2817,N,00133.7341,W,000.0,288.6,080322,002.0,W
2022-03-08T00:07:17.491117,$GPRMC,000717,A,5348.2819,N,00133.7343,W,000.0,288.6,080322,002.0,W
2022-03-08T00:07:18.500290,$GPRMC,000718,A,5348.2822,N,00133.7345,W,000.0,288.6,080322,002.0,W
2022-03-08T00:07:19.491323,$GPRMC,000719,A,5348.2825,N,00133.7346,W,000.0,288.6,080322,002.0,W
2022-03-08T00:07:20.500396,$GPRMC,000720,A,5348.2825,N,00133.7344,W,000.0,288.6,080322,002.0,W
2022-03-08T00:07:21.481573,$GPRMC,000721,A,5348.2824,N,00133.7344,W,000.0,288.6,080322,002.0,W
2022-03-08T00:07:22.471566,$GPRMC,000722,A,5348.2824,N,00133.7347,W,000.0,288.6,080322,002.0,W
2022-03-08T00:07:23.471466,$GPRMC,000723,A,5348.2825,N,00133.7350,W,000.0,288.6,080322,002.0,W
2022-03-08T00:07:24.481505,$GPRMC,000724,A,5348.2823,N,00133.7350,W,000.0,288.6,080322,002.0,W
2022-03-08T00:07:25.490568,$GPRMC,000725,A,5348.2824,N,00133.7351,W,000.0,288.6,080322,002.0,W
2022-03-08T00:07:26.476350,$GPRMC,000726,A,5348.2824,N,00133.7350,W,000.0,288.6,080322,002.0,W
2022-03-08T00:07:27.537410,$GPRMC,000727,A,5348.2821,N,00133.7352,W,000.0,288.6,080322,002.0,W
2022-03-08T00:07:28.497184,$GPRMC,000728,A,5348.2820,N,00133.7352,W,000.0,288.6,080322,002.0,W
2022-03-08T00:07:29.511145,$GPRMC,000729,A,5348.2819,N,00133.7353,W,000.0,288.6,080322,002.0,W
2022-03-08T00:07:30.519745,$GPRMC,000730,A,5348.2819,N,00133.7354,W,000.0,288.6,080322,002.0,W
2022-03-08T00:07:31.476865,$GPRMC,000731,A,5348.2818,N,00133.7352,W,000.0,288.6,080322,002.0,W
2022-03-08T00:07:32.493443,$GPRMC,000732,A,5348.2815,N,00133.7344,W,001.4,134.8,080322,002.0,W
2022-03-08T00:07:33.471762,$GPRMC,000733,A,5348.2814,N,00133.7342,W,001.2,136.7,080322,002.0,W
2022-03-08T00:07:34.486768,$GPRMC,000734,A,5348.2815,N,00133.7342,W,000.0,136.7,080322,002.0,W
2022-03-08T00:07:35.456792,$GPRMC,000735,A,5348.2815,N,00133.7343,W,000.0,136.7,080322,002.0,W
2022-03-08T00:07:36.466247,$GPRMC,000736,A,5348.2814,N,00133.7343,W,000.0,136.7,080322,002.0,W
2022-03-08T00:07:37.461905,$GPRMC,000737,A,5348.2813,N,00133.7342,W,000.0,136.7,080322,002.0,W
2022-03-08T00:07:38.466971,$GPRMC,000738,A,5348.2814,N,00133.7345,W,000.0,136.7,080322,002.0,W
2022-03-08T00:07:39.476350,$GPRMC,000739,A,5348.2815,N,00133.7348,W,000.0,136.7,080322,002.0,W
2022-03-08T00:07:40.485984,$GPRMC,000740,A,5348.2816,N,00133.7350,W,000.0,136.7,080322,002.0,W
2022-03-08T00:07:41.495949,$GPRMC,000741,A,5348.2816,N,00133.7351,W,000.0,136.7,080322,002.0,W
2022-03-08T00:07:42.476861,$GPRMC,000742,A,5348.2814,N,00133.7353,W,000.0,136.7,080322,002.0,W
2022-03-08T00:07:43.466876,$GPRMC,000743,A,5348.2811,N,00133.7353,W,000.0,136.7,080322,002.0,W
2022-03-08T00:07:44.497015,$GPRMC,000744,A,5348.2810,N,00133.7352,W,000.0,136.7,080322,002.0,W
2022-03-08T00:07:45.466957,$GPRMC,000745,A,5348.2810,N,00133.7351,W,000.0,136.7,080322,002.0,W
2022-03-08T00:07:46.477011,$GPRMC,000746,A,5348.2807,N,00133.7346,W,000.0,136.7,080322,002.0,W
2022-03-08T00:07:47.477101,$GPRMC,000747,A,5348.2804,N,00133.7342,W,000.0,136.7,080322,002.0,W
2022-03-08T00:07:48.482133,$GPRMC,000748,A,5348.2803,N,00133.7342,W,000.0,136.7,080322,002.0,W
2022-03-08T00:07:49.491087,$GPRMC,000749,A,5348.2804,N,00133.7340,W,000.0,136.7,080322,002.0,W
2022-03-08T00:07:50.500988,$GPRMC,000750,A,5348.2803,N,00133.7334,W,000.0,136.7,080322,002.0,W
2022-03-08T00:07:51.511063,$GPRMC,000751,A,5348.2801,N,00133.7330,W,000.0,136.7,080322,002.0,W
2022-03-08T00:07:52.521395,$GPRMC,000752,A,5348.2800,N,00133.7328,W,000.0,136.7,080322,002.0,W
2022-03-08T00:07:53.482223,$GPRMC,000753,A,5348.2797,N,00133.7327,W,000.0,136.7,080322,002.0,W
2022-03-08T00:07:54.491346,$GPRMC,000754,A,5348.2797,N,00133.7330,W,000.0,136.7,080322,002.0,W
2022-03-08T00:07:55.501595,$GPRMC,000755,A,5348.2796,N,00133.7332,W,000.0,136.7,080322,002.0,W
2022-03-08T00:07:56.482420,$GPRMC,000756,A,5348.2796,N,00133.7333,W,000.0,136.7,080322,002.0,W
2022-03-08T00:07:57.482331,$GPRMC,000757,A,5348.2795,N,00133.7333,W,000.0,136.7,080322,002.0,W
2022-03-08T00:07:58.491637,$GPRMC,000758,A,5348.2794,N,00133.7331,W,000.0,136.7,080322,002.0,W
2022-03-08T00:07:59.497755,$GPRMC,000759,A,5348.2793,N,00133.7330,W,000.0,136.7,080322,002.0,W
2022-03-08T00:08:00.487536,$GPRMC,000800,A,5348.2793,N,00133.7331,W,000.0,136.7,080322,002.0,W
2022-03-08T00:08:01.496835,$GPRMC,000801,A,5348.2792,N,00133.7332,W,001.0,154.7,080322,002.0,W
2022-03-08T00:08:02.482443,$GPRMC,000802,A,5348.2790,N,00133.7328,W,000.0,154.7,080322,002.0,W
2022-03-08T00:08:03.491673,$GPRMC,000803,A,5348.2789,N,00133.7325,W,000.0,154.7,080322,002.0,W
2022-03-08T00:08:04.497917,$GPRMC,000804,A,5348.2786,N,00133.7318,W,000.0,154.7,080322,002.0,W
2022-03-08T00:08:05.506623,$GPRMC,000805,A,5348.2784,N,00133.7315,W,000.0,154.7,080322,002.0,W
2022-03-08T00:08:06.477643,$GPRMC,000806,A,5348.2783,N,00133.7313,W,000.0,154.7,080322,002.0,W
2022-03-08T00:08:07.472735,$GPRMC,000807,A,5348.2781,N,00133.7309,W,000.0,154.7,080322,002.0,W
2022-03-08T00:08:08.473100,$GPRMC,000808,A,5348.2780,N,00133.7307,W,000.0,154.7,080322,002.0,W
2022-03-08T00:08:09.497713,$GPRMC,000809,A,5348.2779,N,00133.7303,W,000.0,154.7,080322,002.0,W
2022-03-08T00:08:10.473161,$GPRMC,000810,A,5348.2778,N,00133.7299,W,001.1,142.1,080322,002.0,W
2022-03-08T00:08:11.462944,$GPRMC,000811,A,5348.2779,N,00133.7294,W,000.9,129.0,080322,002.0,W
2022-03-08T00:08:12.472046,$GPRMC,000812,A,5348.2781,N,00133.7291,W,000.0,129.0,080322,002.0,W
2022-03-08T00:08:13.481727,$GPRMC,000813,A,5348.2784,N,00133.7292,W,000.0,129.0,080322,002.0,W
2022-03-08T00:08:14.492078,$GPRMC,000814,A,5348.2786,N,00133.7293,W,000.0,129.0,080322,002.0,W
2022-03-08T00:08:15.473340,$GPRMC,000815,A,5348.2790,N,00133.7296,W,000.0,129.0,080322,002.0,W
2022-03-08T00:08:16.478222,$GPRMC,000816,A,5348.2791,N,00133.7297,W,000.0,129.0,080322,002.0,W
2022-03-08T00:08:17.473252,$GPRMC,000817,A,5348.2793,N,00133.7299,W,000.0,129.0,080322,002.0,W
2022-03-08T00:08:18.468336,$GPRMC,000818,A,5348.2796,N,00133.7302,W,000.0,129.0,080322,002.0,W
2022-03-08T00:08:19.477666,$GPRMC,000819,A,5348.2799,N,00133.7306,W,000.0,129.0,080322,002.0,W
2022-03-08T00:08:20.458226,$GPRMC,000820,A,5348.2801,N,00133.7311,W,000.0,129.0,080322,002.0,W
2022-03-08T00:08:21.458271,$GPRMC,000821,A,5348.2801,N,00133.7313,W,000.0,129.0,080322,002.0,W
2022-03-08T00:08:22.458595,$GPRMC,000822,A,5348.2800,N,00133.7313,W,000.0,129.0,080322,002.0,W
2022-03-08T00:08:23.483412,$GPRMC,000823,A,5348.2800,N,00133.7314,W,000.0,129.0,080322,002.0,W
2022-03-08T00:08:24.491786,$GPRMC,000824,A,5348.2799,N,00133.7313,W,000.0,129.0,080322,002.0,W
2022-03-08T00:08:25.537490,$GPRMC,000825,A,5348.2799,N,00133.7312,W,000.0,129.0,080322,002.0,W
2022-03-08T00:08:26.861433,$GPRMC,000826,A,5348.2798,N,00133.7310,W,000.0,129.0,080322,002.0,W
2022-03-08T00:08:28.504861,$GPRMC,000828,A,5348.2797,N,00133.7306,W,000.0,129.0,080322,002.0,W
2022-03-08T00:08:29.524372,$GPRMC,000829,A,5348.2797,N,00133.7304,W,000.0,129.0,080322,002.0,W
2022-03-08T00:08:30.531467,$GPRMC,000830,A,5348.2798,N,00133.7303,W,000.0,129.0,080322,002.0,W
2022-03-08T00:08:31.542631,$GPRMC,000831,A,5348.2799,N,00133.7303,W,000.0,129.0,080322,002.0,W
2022-03-08T00:08:32.552394,$GPRMC,000832,A,5348.2800,N,00133.7304,W,000.0,129.0,080322,002.0,W
2022-03-08T00:08:33.503546,$GPRMC,000833,A,5348.2799,N,00133.7304,W,000.0,129.0,080322,002.0,W
2022-03-08T00:08:34.512477,$GPRMC,000834,A,5348.2798,N,00133.7302,W,000.0,129.0,080322,002.0,W
2022-03-08T00:08:35.522839,$GPRMC,000835,A,5348.2801,N,00133.7302,W,000.0,129.0,080322,002.0,W
2022-03-08T00:08:36.532857,$GPRMC,000836,A,5348.2802,N,00133.7302,W,000.0,129.0,080322,002.0,W
2022-03-08T00:08:37.547862,$GPRMC,000837,A,5348.2802,N,00133.7301,W,000.0,129.0,080322,002.0,W
2022-03-08T00:08:38.463657,$GPRMC,000838,A,5348.2802,N,00133.7302,W,000.0,129.0,080322,002.0,W
2022-03-08T00:08:39.473065,$GPRMC,000839,A,5348.2802,N,00133.7303,W,000.0,129.0,080322,002.0,W
2022-03-08T00:08:40.493889,$GPRMC,000840,A,5348.2803,N,00133.7305,W,000.0,129.0,080322,002.0,W
2022-03-08T00:08:41.503024,$GPRMC,000841,A,5348.2804,N,00133.7307,W,000.0,129.0,080322,002.0,W
2022-03-08T00:08:42.512942,$GPRMC,000842,A,5348.2804,N,00133.7309,W,000.0,129.0,080322,002.0,W
2022-03-08T00:08:43.523276,$GPRMC,000843,A,5348.2805,N,00133.7310,W,001.0,285.4,080322,002.0,W
2022-03-08T00:08:44.483944,$GPRMC,000844,A,5348.2804,N,00133.7312,W,001.0,284.5,080322,002.0,W
2022-03-08T00:08:45.493466,$GPRMC,000845,A,5348.2807,N,00133.7316,W,000.9,285.5,080322,002.0,W
2022-03-08T00:08:46.502989,$GPRMC,000846,A,5348.2809,N,00133.7318,W,000.0,285.5,080322,002.0,W
2022-03-08T00:08:47.512922,$GPRMC,000847,A,5348.2807,N,00133.7319,W,000.0,285.5,080322,002.0,W
2022-03-08T00:08:48.474333,$GPRMC,000848,A,5348.2805,N,00133.7319,W,000.0,285.5,080322,002.0,W
2022-03-08T00:08:49.499140,$GPRMC,000849,A,5348.2805,N,00133.7316,W,000.0,285.5,080322,002.0,W
2022-03-08T00:08:50.508223,$GPRMC,000850,A,5348.2804,N,00133.7318,W,000.0,285.5,080322,002.0,W
2022-03-08T00:08:51.518392,$GPRMC,000851,A,5348.2804,N,00133.7320,W,000.0,285.5,080322,002.0,W
2022-03-08T00:08:52.528376,$GPRMC,000852,A,5348.2805,N,00133.7322,W,000.0,285.5,080322,002.0,W
2022-03-08T00:08:53.484730,$GPRMC,000853,A,5348.2806,N,00133.7323,W,000.0,285.5,080322,002.0,W
2022-03-08T00:08:54.493630,$GPRMC,000854,A,5348.2806,N,00133.7324,W,000.0,285.5,080322,002.0,W
2022-03-08T00:08:55.464533,$GPRMC,000855,A,5348.2806,N,00133.7325,W,000.0,285.5,080322,002.0,W
2022-03-08T00:08:56.473524,$GPRMC,000856,A,5348.2806,N,00133.7326,W,000.0,285.5,080322,002.0,W
2022-03-08T00:08:57.483573,$GPRMC,000857,A,5348.2807,N,00133.7323,W,000.0,285.5,080322,002.0,W
2022-03-08T00:08:58.493912,$GPRMC,000858,A,5348.2808,N,00133.7320,W,000.0,285.5,080322,002.0,W
2022-03-08T00:08:59.503266,$GPRMC,000859,A,5348.2806,N,00133.7318,W,000.0,285.5,080322,002.0,W
2022-03-08T00:09:00.513568,$GPRMC,000900,A,5348.2804,N,00133.7315,W,000.0,285.5,080322,002.0,W
2022-03-08T00:09:01.523330,$GPRMC,000901,A,5348.2804,N,00133.7313,W,000.0,285.5,080322,002.0,W
2022-03-08T00:09:02.464570,$GPRMC,000902,A,5348.2806,N,00133.7315,W,000.0,285.5,080322,002.0,W
2022-03-08T00:09:03.473678,$GPRMC,000903,A,5348.2808,N,00133.7318,W,000.0,285.5,080322,002.0,W
2022-03-08T00:09:04.484812,$GPRMC,000904,A,5348.2811,N,00133.7323,W,001.1,295.0,080322,002.0,W
2022-03-08T00:09:05.474770,$GPRMC,000905,A,5348.2813,N,00133.7325,W,000.0,295.0,080322,002.0,W
2022-03-08T00:09:06.508450,$GPRMC,000906,A,5348.2816,N,00133.7326,W,000.9,328.1,080322,002.0,W
2022-03-08T00:09:07.518693,$GPRMC,000907,A,5348.2817,N,00133.7327,W,000.0,328.1,080322,002.0,W
2022-03-08T00:09:08.528635,$GPRMC,000908,A,5348.2815,N,00133.7325,W,000.0,328.1,080322,002.0,W
2022-03-08T00:09:09.538703,$GPRMC,000909,A,5348.2813,N,00133.7324,W,000.0,328.1,080322,002.0,W
2022-03-08T00:09:10.475069,$GPRMC,000910,A,5348.2811,N,00133.7322,W,001.1,213.5,080322,002.0,W
2022-03-08T00:09:11.474977,$GPRMC,000911,A,5348.2810,N,00133.7322,W,001.0,218.5,080322,002.0,W
2022-03-08T00:09:12.483930,$GPRMC,000912,A,5348.2811,N,00133.7318,W,000.0,218.5,080322,002.0,W
2022-03-08T00:09:13.494259,$GPRMC,000913,A,5348.2811,N,00133.7311,W,000.0,218.5,080322,002.0,W
2022-03-08T00:09:14.504117,$GPRMC,000914,A,5348.2807,N,00133.7302,W,000.0,218.5,080322,002.0,W
2022-03-08T00:09:15.480070,$GPRMC,000915,A,5348.2806,N,00133.7299,W,000.0,218.5,080322,002.0,W
2022-03-08T00:09:16.470115,$GPRMC,000916,A,5348.2805,N,00133.7296,W,000.0,218.5,080322,002.0,W
2022-03-08T00:09:17.479119,$GPRMC,000917,A,5348.2803,N,00133.7294,W,000.0,218.5,080322,002.0,W
2022-03-08T00:09:18.488785,$GPRMC,000918,A,5348.2800,N,00133.7291,W,000.0,218.5,080322,002.0,W
2022-03-08T00:09:19.499137,$GPRMC,000919,A,5348.2797,N,00133.7287,W,000.0,218.5,080322,002.0,W
2022-03-08T00:09:20.509290,$GPRMC,000920,A,5348.2795,N,00133.7286,W,000.0,218.5,080322,002.0,W
2022-03-08T00:09:21.465078,$GPRMC,000921,A,5348.2793,N,00133.7286,W,000.0,218.5,080322,002.0,W
2022-03-08T00:09:22.474167,$GPRMC,000922,A,5348.2794,N,00133.7284,W,000.0,218.5,080322,002.0,W
2022-03-08T00:09:23.465037,$GPRMC,000923,A,5348.2794,N,00133.7281,W,000.0,218.5,080322,002.0,W
2022-03-08T00:09:24.474360,$GPRMC,000924,A,5348.2790,N,00133.7278,W,001.1,136.8,080322,002.0,W
2022-03-08T00:09:25.470398,$GPRMC,000925,A,5348.2784,N,00133.7275,W,001.6,137.7,080322,002.0,W
2022-03-08T00:09:26.479357,$GPRMC,000926,A,5348.2779,N,00133.7274,W,001.5,139.9,080322,002.0,W
2022-03-08T00:09:27.547082,$GPRMC,000927,A,5348.2776,N,00133.7277,W,001.2,145.1,080322,002.0,W
2022-03-08T00:09:28.684372,$GPRMC,000928,A,5348.2772,N,00133.7280,W,001.3,204.8,080322,002.0,W
2022-03-08T00:09:29.525310,$GPRMC,000929,A,5348.2768,N,00133.7285,W,001.6,214.3,080322,002.0,W
2022-03-08T00:09:30.533571,$GPRMC,000930,A,5348.2766,N,00133.7289,W,001.3,230.0,080322,002.0,W
2022-03-08T00:09:31.544798,$GPRMC,000931,A,5348.2764,N,00133.7293,W,001.2,239.0,080322,002.0,W
2022-03-08T00:09:32.470808,$GPRMC,000932,A,5348.2763,N,00133.7298,W,001.0,244.9,080322,002.0,W
2022-03-08T00:09:33.479708,$GPRMC,000933,A,5348.2766,N,00133.7302,W,000.9,275.4,080322,002.0,W
2022-03-08T00:09:34.500892,$GPRMC,000934,A,5348.2768,N,00133.7302,W,000.0,275.4,080322,002.0,W
2022-03-08T00:09:35.480745,$GPRMC,000935,A,5348.2770,N,00133.7309,W,000.0,275.4,080322,002.0,W
2022-03-08T00:09:36.475815,$GPRMC,000936,A,5348.2769,N,00133.7312,W,000.0,275.4,080322,002.0,W
2022-03-08T00:09:37.480891,$GPRMC,000937,A,5348.2773,N,00133.7316,W,000.0,275.4,080322,002.0,W
2022-03-08T00:09:38.489923,$GPRMC,000938,A,5348.2777,N,00133.7319,W,000.0,275.4,080322,002.0,W
2022-03-08T00:09:39.505954,$GPRMC,000939,A,5348.2783,N,00133.7323,W,000.9,323.6,080322,002.0,W
2022-03-08T00:09:40.514907,$GPRMC,000940,A,5348.2783,N,00133.7326,W,000.0,323.6,080322,002.0,W
2022-03-08T00:09:41.485980,$GPRMC,000941,A,5348.2786,N,00133.7331,W,000.0,323.6,080322,002.0,W
2022-03-08T00:09:42.496182,$GPRMC,000942,A,5348.2789,N,00133.7337,W,000.9,303.6,080322,002.0,W
2022-03-08T00:09:43.486193,$GPRMC,000943,A,5348.2789,N,00133.7340,W,000.0,303.6,080322,002.0,W
2022-03-08T00:09:44.511190,$GPRMC,000944,A,5348.2792,N,00133.7342,W,000.0,303.6,080322,002.0,W
2022-03-08T00:09:45.481021,$GPRMC,000945,A,5348.2797,N,00133.7347,W,000.0,303.6,080322,002.0,W
2022-03-08T00:09:46.490331,$GPRMC,000946,A,5348.2802,N,00133.7353,W,000.9,290.6,080322,002.0,W
2022-03-08T00:09:47.491277,$GPRMC,000947,A,5348.2804,N,00133.7358,W,000.0,290.6,080322,002.0,W
2022-03-08T00:09:48.500369,$GPRMC,000948,A,5348.2807,N,00133.7358,W,000.0,290.6,080322,002.0,W
2022-03-08T00:09:49.521301,$GPRMC,000949,A,5348.2812,N,00133.7359,W,000.0,290.6,080322,002.0,W
2022-03-08T00:09:50.530742,$GPRMC,000950,A,5348.2815,N,00133.7355,W,000.0,290.6,080322,002.0,W
2022-03-08T00:09:51.540322,$GPRMC,000951,A,5348.2815,N,00133.7351,W,000.0,290.6,080322,002.0,W
2022-03-08T00:09:52.501383,$GPRMC,000952,A,5348.2815,N,00133.7350,W,000.0,290.6,080322,002.0,W
2022-03-08T00:09:53.510323,$GPRMC,000953,A,5348.2816,N,00133.7350,W,000.0,290.6,080322,002.0,W
2022-03-08T00:09:56.183701,$GPRMC,000955,A,5348.2820,N,00133.7346,W,000.0,290.6,080322,002.0,W
2022-03-08T00:09:56.496630,$GPRMC,000956,A,5348.2823,N,00133.7341,W,000.0,290.6,080322,002.0,W
2022-03-08T00:09:57.505610,$GPRMC,000957,A,5348.2822,N,00133.7340,W,000.0,290.6,080322,002.0,W
2022-03-08T00:09:58.515618,$GPRMC,000958,A,5348.2822,N,00133.7341,W,000.0,290.6,080322,002.0,W
2022-03-08T00:09:59.525325,$GPRMC,000959,A,5348.2821,N,00133.7340,W,000.0,290.6,080322,002.0,W
2022-03-08T00:10:00.482008,$GPRMC,001000,A,5348.2821,N,00133.7339,W,000.0,290.6,080322,002.0,W
2022-03-08T00:10:01.481932,$GPRMC,001001,A,5348.2821,N,00133.7340,W,000.9,169.8,080322,002.0,W
2022-03-08T00:10:02.486557,$GPRMC,001002,A,5348.2822,N,00133.7335,W,000.0,169.8,080322,002.0,W
2022-03-08T00:10:03.495677,$GPRMC,001003,A,5348.2821,N,00133.7330,W,000.0,169.8,080322,002.0,W
2022-03-08T00:10:04.484124,$GPRMC,001004,A,5348.2819,N,00133.7323,W,000.0,169.8,080322,002.0,W
2022-03-08T00:10:05.481884,$GPRMC,001005,A,5348.2816,N,00133.7321,W,000.9,185.2,080322,002.0,W
2022-03-08T00:10:06.487028,$GPRMC,001006,A,5348.2815,N,00133.7316,W,000.0,185.2,080322,002.0,W
2022-03-08T00:10:07.476640,$GPRMC,001007,A,5348.2814,N,00133.7314,W,000.0,185.2,080322,002.0,W
2022-03-08T00:10:08.485933,$GPRMC,001008,A,5348.2814,N,00133.7310,W,000.0,185.2,080322,002.0,W
2022-03-08T00:10:09.531747,$GPRMC,001009,A,5348.2814,N,00133.7306,W,000.0,185.2,080322,002.0,W
2022-03-08T00:10:10.497031,$GPRMC,001010,A,5348.2814,N,00133.7309,W,000.0,185.2,080322,002.0,W
2022-03-08T00:10:11.505957,$GPRMC,001011,A,5348.2815,N,00133.7313,W,001.0,227.3,080322,002.0,W
2022-03-08T00:10:12.516114,$GPRMC,001012,A,5348.2817,N,00133.7315,W,000.0,227.3,080322,002.0,W
2022-03-08T00:10:13.482238,$GPRMC,001013,A,5348.2819,N,00133.7319,W,000.0,227.3,080322,002.0,W
2022-03-08T00:10:14.517130,$GPRMC,001014,A,5348.2824,N,00133.7322,W,000.0,227.3,080322,002.0,W
2022-03-08T00:10:15.528179,$GPRMC,001015,A,5348.2827,N,00133.7325,W,000.0,227.3,080322,002.0,W
2022-03-08T00:10:16.497057,$GPRMC,001016,A,5348.2828,N,00133.7326,W,000.0,227.3,080322,002.0,W
2022-03-08T00:10:17.506179,$GPRMC,001017,A,5348.2829,N,00133.7326,W,000.0,227.3,080322,002.0,W
2022-03-08T00:10:18.516313,$GPRMC,001018,A,5348.2832,N,00133.7326,W,000.0,227.3,080322,002.0,W
2022-03-08T00:10:19.526301,$GPRMC,001019,A,5348.2833,N,00133.7328,W,000.0,227.3,080322,002.0,W
2022-03-08T00:10:20.536391,$GPRMC,001020,A,5348.2833,N,00133.7328,W,000.0,227.3,080322,002.0,W
2022-03-08T00:10:21.546503,$GPRMC,001021,A,5348.2833,N,00133.7329,W,000.0,227.3,080322,002.0,W
2022-03-08T00:10:22.556315,$GPRMC,001022,A,5348.2833,N,00133.7330,W,000.0,227.3,080322,002.0,W
2022-03-08T00:10:23.566473,$GPRMC,001023,A,5348.2833,N,00133.7331,W,000.0,227.3,080322,002.0,W
2022-03-08T00:10:24.497371,$GPRMC,001024,A,5348.2831,N,00133.7335,W,000.0,227.3,080322,002.0,W
2022-03-08T00:10:25.482516,$GPRMC,001025,A,5348.2831,N,00133.7336,W,000.0,227.3,080322,002.0,W
2022-03-08T00:10:26.482449,$GPRMC,001026,A,5348.2831,N,00133.7335,W,000.0,227.3,080322,002.0,W
2022-03-08T00:10:27.549057,$GPRMC,001027,A,5348.2831,N,00133.7337,W,000.0,227.3,080322,002.0,W
2022-03-08T00:10:28.686987,$GPRMC,001028,A,5348.2830,N,00133.7337,W,000.0,227.3,080322,002.0,W
2022-03-08T00:10:29.712053,$GPRMC,001029,A,5348.2830,N,00133.7336,W,000.0,227.3,080322,002.0,W
2022-03-08T00:10:30.477020,$GPRMC,001030,A,5348.2830,N,00133.7336,W,000.0,227.3,080322,002.0,W
2022-03-08T00:10:31.486521,$GPRMC,001031,A,5348.2828,N,00133.7338,W,000.0,227.3,080322,002.0,W
2022-03-08T00:10:32.496700,$GPRMC,001032,A,5348.2827,N,00133.7339,W,000.0,227.3,080322,002.0,W
2022-03-08T00:10:33.497781,$GPRMC,001033,A,5348.2826,N,00133.7339,W,000.0,227.3,080322,002.0,W
2022-03-08T00:10:34.506813,$GPRMC,001034,A,5348.2824,N,00133.7336,W,000.0,227.3,080322,002.0,W
2022-03-08T00:10:35.516696,$GPRMC,001035,A,5348.2820,N,00133.7335,W,000.0,227.3,080322,002.0,W
2022-03-08T00:10:36.487656,$GPRMC,001036,A,5348.2817,N,00133.7333,W,000.0,227.3,080322,002.0,W
2022-03-08T00:10:37.477785,$GPRMC,001037,A,5348.2816,N,00133.7330,W,000.0,227.3,080322,002.0,W
2022-03-08T00:10:38.497739,$GPRMC,001038,A,5348.2816,N,00133.7329,W,000.0,227.3,080322,002.0,W
